timestamp_ms,accel_x_mean,accel_x_std,accel_y_mean,accel_y_std,accel_z_mean,accel_z_std,gyro_x_mean,gyro_y_mean,gyro_z_mean,pos_x,pos_y,pos_z,vel_x,vel_y,vel_z,roll,pitch,yaw,yaw_speed,foot_force_0,foot_force_1,foot_force_2,foot_force_3,body_height,mode,gait_type,error_code,power_v_mean,power_a_mean
0,,,,,,,,,,,,,,,,,,,,,,,,,,,,30.110588,-1.965000
20,-0.007183,0.027087,-0.221464,0.016930,9.593567,0.037245,-0.012251,-0.006392,0.005326,-0.053070,-0.136864,0.316834,-0.001478,0.002084,-0.022901,-0.016187,-0.018156,-0.707070,0.002131,0.000000,0.000000,0.000000,0.000000,0.322436,0.000000,0.000000,100.000000,30.110588,-1.965000
40,-0.053391,0.032935,-0.190339,0.023627,9.583151,0.032053,-0.009481,-0.004155,-0.004368,-0.053112,-0.136909,0.316824,-0.001838,-0.006533,-0.022866,-0.016175,-0.018152,-0.707443,-0.015979,0.000000,0.000000,0.000000,0.000000,0.322439,0.000000,0.000000,100.000000,30.119440,-1.965000
60,-0.050652,0.027318,-0.176722,0.030306,9.590498,0.038509,-0.008589,-0.004261,-0.002929,-0.053143,-0.136925,0.316828,0.004734,-0.001642,-0.022318,-0.016165,-0.018192,-0.707540,0.009587,0.000000,0.000000,0.000000,0.000000,0.322443,0.000000,0.000000,100.000000,30.119440,-1.965000
80,-0.026772,0.047620,-0.176899,0.026865,9.591008,0.036120,-0.008861,-0.005278,0.002615,-0.053125,-0.136895,0.316817,-0.004178,0.003013,-0.022259,-0.016166,-0.018190,-0.707327,0.020240,0.000000,0.000000,0.000000,0.000000,0.322446,0.000000,0.000000,100.000000,30.119440,-1.965000
100,-0.010047,0.057589,-0.177941,0.031265,9.577619,0.044974,-0.009207,-0.005250,0.004451,-0.053092,-0.136858,0.316808,-0.011943,0.004007,-0.022765,-0.016196,-0.018212,-0.707154,0.008522,0.000000,0.000000,0.000000,0.000000,0.322440,0.000000,0.000000,100.000000,30.119440,-1.965000
120,-0.018069,0.057784,-0.180650,0.031266,9.575985,0.041280,-0.008822,-0.005226,0.002896,-0.053111,-0.136878,0.316820,-0.001322,0.000666,-0.022406,-0.016173,-0.018214,-0.707299,-0.007457,0.000000,0.000000,0.000000,0.000000,0.322443,0.000000,0.000000,100.000000,30.119440,-1.965000
140,-0.025294,0.066556,-0.182075,0.033792,9.580976,0.042519,-0.008110,-0.006632,0.003574,-0.053142,-0.136916,0.316823,-0.001694,-0.004198,-0.022125,-0.016159,-0.018207,-0.707516,0.005326,0.000000,0.000000,0.000000,0.000000,0.322442,0.000000,0.000000,100.000000,30.119440,-1.965000
160,-0.018954,0.066749,-0.182877,0.034249,9.572018,0.036941,-0.008984,-0.006534,0.005433,-0.053140,-0.136923,0.316830,-0.003035,0.005659,-0.021671,-0.016160,-0.018182,-0.707468,0.015979,0.000000,0.000000,0.000000,0.000000,0.322441,0.000000,0.000000,100.000000,30.119440,-1.965000
180,-0.012936,0.068646,-0.178445,0.035740,9.569893,0.038362,-0.010103,-0.007113,0.006495,-0.053119,-0.136878,0.316831,-0.005892,0.009732,-0.021685,-0.016145,-0.018230,-0.707172,0.020240,0.000000,0.000000,0.000000,0.000000,0.322440,0.000000,0.000000,100.000000,30.119440,-1.965000
200,-0.023826,0.059481,-0.181071,0.036869,9.574992,0.030369,-0.009072,-0.006082,0.004261,-0.053107,-0.136882,0.316823,0.004559,-0.000335,-0.022536,-0.016144,-0.018204,-0.707211,-0.003196,0.000000,0.000000,0.000000,0.000000,0.322436,0.000000,0.000000,100.000000,30.110588,-1.965000
220,-0.033319,0.065297,-0.176532,0.035376,9.573334,0.033038,-0.009765,-0.005220,0.003196,-0.053118,-0.136919,0.316809,-0.008472,0.001865,-0.022641,-0.016180,-0.018152,-0.707486,-0.009587,0.000000,0.000000,0.000000,0.000000,0.322439,0.000000,0.000000,100.000000,30.128294,-1.965000
240,-0.028571,0.061317,-0.171106,0.038725,9.573734,0.034914,-0.010120,-0.003906,0.003941,-0.053131,-0.136944,0.316807,-0.011392,-0.001151,-0.021855,-0.016184,-0.018109,-0.707587,0.001065,0.000000,0.000000,0.000000,0.000000,0.322445,0.000000,0.000000,100.000000,30.119440,-1.965000
260,-0.020969,0.062168,-0.173657,0.036754,9.568428,0.034683,-0.009690,-0.003574,0.006357,-0.053128,-0.136912,0.316811,-0.000141,0.003194,-0.022457,-0.016170,-0.018175,-0.707403,0.022371,0.000000,0.000000,0.000000,0.000000,0.322440,0.000000,0.000000,100.000000,30.119440,-1.965000
280,-0.021007,0.062327,-0.177557,0.038674,9.563640,0.035287,-0.008660,-0.002440,0.004708,-0.053085,-0.136882,0.316800,0.005972,-0.002986,-0.023527,-0.016196,-0.018155,-0.707210,0.005326,0.000000,0.000000,0.000000,0.000000,0.322440,0.000000,0.000000,100.000000,30.128294,-1.965000
300,-0.032042,0.060452,-0.181321,0.035025,9.568827,0.036530,-0.008132,-0.002876,0.002415,-0.053094,-0.136881,0.316788,-0.010401,-0.006176,-0.023120,-0.016251,-0.018154,-0.707420,-0.015979,0.000000,0.000000,0.000000,0.000000,0.322436,0.000000,0.000000,100.000000,30.119440,-1.965000
320,-0.034677,0.060677,-0.181998,0.035397,9.569085,0.037614,-0.007251,-0.005292,0.001100,-0.053151,-0.136935,0.316784,-0.004889,-0.008332,-0.023209,-0.016208,-0.018177,-0.707738,-0.005326,0.000000,0.000000,0.000000,0.000000,0.322439,0.000000,0.000000,100.000000,30.119440,-1.965000
340,-0.019593,0.055582,-0.182239,0.029843,9.563040,0.031689,-0.007918,-0.005894,0.002557,-0.053168,-0.136919,0.316797,-0.001697,-0.004187,-0.022949,-0.016233,-0.018239,-0.707648,0.012783,0.000000,0.000000,0.000000,0.000000,0.322441,0.000000,0.000000,100.000000,30.128294,-1.965000
360,-0.013368,0.060164,-0.178248,0.032920,9.571060,0.033466,-0.008132,-0.005965,0.002557,-0.053133,-0.136888,0.316808,-0.006199,0.008899,-0.022173,-0.016223,-0.018227,-0.707434,0.010653,0.000000,0.000000,0.000000,0.000000,0.322441,0.000000,0.000000,100.000000,30.119440,-1.965000
380,-0.013438,0.058517,-0.182461,0.030390,9.578970,0.024780,-0.008488,-0.005464,0.000962,-0.053131,-0.136877,0.316810,-0.001052,-0.013769,-0.022753,-0.016232,-0.018271,-0.707411,-0.008522,0.000000,0.000000,0.000000,0.000000,0.322436,0.000000,0.000000,100.000000,30.119440,-1.965000
400,-0.021934,0.061325,-0.180762,0.029897,9.577926,0.024502,-0.008763,-0.005051,-0.000859,-0.053142,-0.136920,0.316809,-0.006986,-0.015433,-0.022599,-0.016291,-0.018179,-0.707748,-0.019175,0.000000,0.000000,0.000000,0.000000,0.322439,0.000000,0.000000,100.000000,30.119440,-1.965000
420,-0.013567,0.054780,-0.173220,0.033393,9.580359,0.025498,-0.008487,-0.003551,0.001882,-0.053164,-0.136942,0.316807,0.003405,-0.003691,-0.022457,-0.016319,-0.018170,-0.707921,0.014914,0.000000,0.000000,0.000000,0.000000,0.322440,0.000000,0.000000,100.000000,30.119440,-1.965000
440,-0.006449,0.051956,-0.173116,0.035339,9.578815,0.027016,-0.008728,-0.003093,0.003986,-0.053140,-0.136919,0.316797,0.003992,0.003993,-0.023043,-0.016334,-0.018187,-0.707724,0.021305,0.000000,0.000000,0.000000,0.000000,0.322444,0.000000,0.000000,100.000000,30.119440,-1.965000
460,-0.005522,0.053242,-0.176630,0.035186,9.570049,0.033578,-0.008763,-0.002440,0.004570,-0.053102,-0.136881,0.316800,0.008663,-0.003388,-0.023409,-0.016344,-0.018201,-0.707465,0.005326,0.000000,0.000000,0.000000,0.000000,0.322440,0.000000,0.000000,100.000000,30.119440,-1.965000
480,-0.023822,0.051799,-0.177929,0.034137,9.568507,0.040119,-0.007883,-0.003267,0.003160,-0.053111,-0.136888,0.316789,-0.008357,0.000298,-0.023183,-0.016308,-0.018173,-0.707571,-0.010653,0.000000,0.000000,0.000000,0.000000,0.322439,0.000000,0.000000,100.000000,30.128294,-1.965000
500,-0.029387,0.055766,-0.176090,0.032380,9.569200,0.040740,-0.007938,-0.003677,0.003539,-0.053152,-0.136943,0.316794,-0.008936,-0.017981,-0.023029,-0.016315,-0.018148,-0.707855,-0.011718,0.000000,0.000000,0.000000,0.000000,0.322445,0.000000,0.000000,100.000000,30.128294,-1.965000
520,-0.024483,0.055918,-0.174275,0.033708,9.567538,0.037803,-0.008041,-0.004364,0.006048,-0.053170,-0.136934,0.316800,0.003372,0.008721,-0.022537,-0.016310,-0.018206,-0.707859,0.019175,0.000000,0.000000,0.000000,0.000000,0.322444,0.000000,0.000000,100.000000,30.128294,-1.965000
540,-0.011692,0.065384,-0.182039,0.027102,9.574214,0.043445,-0.006995,-0.004616,0.006782,-0.053146,-0.136888,0.316814,-0.002272,-0.002869,-0.022074,-0.016274,-0.018247,-0.707571,0.017044,0.000000,0.000000,0.000000,0.000000,0.322437,0.000000,0.000000,100.000000,30.119440,-1.965000
560,-0.015682,0.063575,-0.185630,0.029282,9.573773,0.039610,-0.007137,-0.004652,0.003089,-0.053153,-0.136880,0.316826,-0.001987,-0.003949,-0.022532,-0.016268,-0.018287,-0.707583,-0.002131,0.000000,0.000000,0.000000,0.000000,0.322438,0.000000,0.000000,100.000000,30.119440,-1.974000
580,-0.023672,0.066253,-0.191189,0.032708,9.574298,0.037627,-0.009759,-0.005189,0.001443,-0.053180,-0.136901,0.316831,-0.008306,-0.012827,-0.022251,-0.016332,-0.018285,-0.707852,-0.009587,0.000000,0.000000,0.000000,0.000000,0.322436,0.000000,0.000000,100.000000,30.119440,-1.974000
600,-0.017725,0.061325,-0.187404,0.034299,9.578623,0.033276,-0.009759,-0.005670,0.003161,-0.053191,-0.136920,0.316840,-0.009438,-0.005430,-0.021723,-0.016334,-0.018294,-0.707954,0.011718,0.000000,0.000000,0.000000,0.000000,0.322445,0.000000,0.000000,100.000000,30.119440,-1.974000
622,-0.003360,0.061756,-0.183697,0.036158,9.574683,0.034669,-0.009656,-0.004673,0.004880,-0.053174,-0.136898,0.316844,0.016392,0.003654,-0.022405,-0.016325,-0.018320,-0.707798,0.008522,0.000000,0.000000,0.000000,0.000000,0.322443,0.000000,0.000000,100.000000,30.119440,-1.974000
640,-0.006305,0.060624,-0.182997,0.037957,9.565393,0.027604,-0.009765,-0.003444,0.003302,-0.053154,-0.136877,0.316840,0.020969,-0.004739,-0.023250,-0.016361,-0.018326,-0.707649,0.012783,0.000000,0.000000,0.000000,0.000000,0.322442,0.000000,0.000000,100.000000,30.119440,-1.974000
660,-0.017238,0.057963,-0.185471,0.038199,9.575451,0.026102,-0.009765,-0.003906,0.002983,-0.053159,-0.136882,0.316840,-0.003885,-0.005531,-0.022350,-0.016375,-0.018293,-0.707816,-0.013848,0.000000,0.000000,0.000000,0.000000,0.322439,0.000000,0.000000,100.000000,30.128294,-1.974000
680,-0.023942,0.062429,-0.179372,0.039549,9.574644,0.022809,-0.007388,-0.004227,0.002199,-0.053206,-0.136931,0.316843,-0.010607,-0.007999,-0.022093,-0.016361,-0.018273,-0.708128,-0.005326,0.000000,0.000000,0.000000,0.000000,0.322442,0.000000,0.000000,100.000000,30.119440,-1.974000
700,-0.012193,0.061897,-0.179077,0.039397,9.565499,0.025449,-0.007891,-0.003314,0.002880,-0.053218,-0.136923,0.316846,0.001274,-0.008905,-0.022532,-0.016379,-0.018324,-0.708063,0.018109,0.000000,0.000000,0.000000,0.000000,0.322443,0.000000,0.000000,100.000000,30.119440,-1.974000
720,-0.003591,0.063874,-0.175589,0.039339,9.573899,0.027599,-0.008446,-0.003576,0.003158,-0.053183,-0.136893,0.316839,0.005977,0.004040,-0.022336,-0.016369,-0.018330,-0.707792,0.008522,0.000000,0.000000,0.000000,0.000000,0.322440,0.000000,0.000000,100.000000,30.119440,-1.974000
740,-0.005772,0.062430,-0.182515,0.036063,9.580355,0.028941,-0.008332,-0.004870,0.002473,-0.053170,-0.136876,0.316838,-0.009339,0.011334,-0.022051,-0.016318,-0.018326,-0.707720,-0.008522,0.000000,0.000000,0.000000,0.000000,0.322437,0.000000,0.000000,100.000000,30.110588,-1.974000
760,-0.015651,0.066769,-0.177437,0.032464,9.578491,0.030165,-0.007615,-0.006076,-0.000552,-0.053200,-0.136914,0.316839,-0.007495,-0.007352,-0.022353,-0.016308,-0.018319,-0.707986,-0.010653,0.000000,0.000000,0.000000,0.000000,0.322440,0.000000,0.000000,100.000000,30.110588,-1.974000
780,-0.009089,0.061271,-0.171097,0.032144,9.575697,0.037490,-0.008246,-0.006707,0.001144,-0.053243,-0.136955,0.316830,-0.007613,-0.001124,-0.022441,-0.016323,-0.018313,-0.708257,-0.003196,0.000000,0.000000,0.000000,0.000000,0.322439,0.000000,0.000000,100.000000,30.119440,-1.974000
800,0.004070,0.057090,-0.173300,0.029219,9.582831,0.032276,-0.006960,-0.005362,0.004368,-0.053222,-0.136936,0.316829,0.002219,0.007464,-0.022368,-0.016323,-0.018318,-0.708103,0.020240,0.000000,0.000000,0.000000,0.000000,0.322443,0.000000,0.000000,100.000000,30.128294,-1.974000
820,-0.001486,0.054902,-0.177047,0.031122,9.577923,0.036220,-0.006612,-0.006171,0.003086,-0.053209,-0.136920,0.316828,-0.005302,-0.001009,-0.022667,-0.016297,-0.018323,-0.707930,0.008522,0.000000,0.000000,0.000000,0.000000,0.322443,0.000000,0.000000,100.000000,30.119440,-1.974000
839,-0.015722,0.051394,-0.178647,0.030491,9.573178,0.033094,-0.008096,-0.004439,0.000710,-0.053199,-0.136914,0.316831,0.001181,-0.002117,-0.022809,-0.016373,-0.018319,-0.708050,-0.012783,0.000000,0.000000,0.000000,0.000000,0.322438,0.000000,0.000000,100.000000,30.119440,-1.974000
860,-0.030661,0.063456,-0.179835,0.033218,9.578930,0.036487,-0.008144,-0.005258,0.001512,-0.053232,-0.136961,0.316829,0.005234,-0.011528,-0.022350,-0.016349,-0.018292,-0.708318,0.001065,0.000000,0.000000,0.000000,0.000000,0.322439,0.000000,0.000000,100.000000,30.119440,-1.974000
880,-0.027932,0.063522,-0.172861,0.034635,9.582952,0.030762,-0.006995,-0.003267,0.001846,-0.053253,-0.136975,0.316846,-0.006798,-0.006337,-0.021483,-0.016325,-0.018290,-0.708378,-0.006392,0.000000,0.000000,0.000000,0.000000,0.322445,0.000000,0.000000,100.000000,30.119440,-1.974000
900,-0.021123,0.067310,-0.171147,0.032090,9.576922,0.031182,-0.008110,-0.004708,0.002749,-0.053241,-0.136939,0.316846,0.001239,0.002047,-0.022128,-0.016351,-0.018340,-0.708106,0.021305,0.000000,0.000000,0.000000,0.000000,0.322440,0.000000,0.000000,100.000000,30.119440,-1.974000
920,-0.026413,0.062059,-0.179333,0.031164,9.581363,0.030601,-0.008660,-0.004399,0.002749,-0.053217,-0.136929,0.316859,0.008723,-0.004624,-0.021639,-0.016298,-0.018346,-0.707992,-0.003196,0.000000,0.000000,0.000000,0.000000,0.322440,0.000000,0.000000,100.000000,30.119440,-1.974000
940,-0.033998,0.063992,-0.178528,0.033579,9.584110,0.030381,-0.005788,-0.005788,0.000497,-0.053252,-0.136949,0.316866,0.004734,-0.006381,-0.021830,-0.016282,-0.018361,-0.708275,-0.009587,0.000000,0.000000,0.000000,0.000000,0.322440,0.000000,0.000000,100.000000,30.119440,-1.974000
960,-0.026722,0.054911,-0.172074,0.033257,9.579704,0.029606,-0.005704,-0.005807,0.000137,-0.053322,-0.136993,0.316859,-0.013061,-0.019688,-0.021972,-0.016237,-0.018380,-0.708524,0.009587,0.000000,0.000000,0.000000,0.000000,0.322443,0.000000,0.000000,100.000000,30.119440,-1.974000
980,-0.006912,0.051435,-0.175279,0.029820,9.581169,0.028157,-0.007079,-0.006632,0.003986,-0.053319,-0.136972,0.316860,-0.008571,-0.001412,-0.021364,-0.016222,-0.018439,-0.708392,0.017044,0.000000,0.000000,0.000000,0.000000,0.322440,0.000000,0.000000,100.000000,30.119440,-1.974000
1000,-0.000918,0.060351,-0.181520,0.033271,9.584550,0.032507,-0.006321,-0.004474,0.004119,-0.053288,-0.136959,0.316864,0.005761,-0.004984,-0.021975,-0.016208,-0.018411,-0.708240,0.017044,0.000000,0.000000,0.000000,0.000000,0.322446,0.000000,0.000000,100.000000,30.119440,-1.974000
1020,-0.008021,0.059886,-0.182159,0.036023,9.573415,0.042934,-0.006108,-0.003977,0.001278,-0.053293,-0.136970,0.316860,-0.009715,-0.015831,-0.022502,-0.016217,-0.018396,-0.708346,-0.012783,0.000000,0.000000,0.000000,0.000000,0.322436,0.000000,0.000000,100.000000,30.119440,-1.974000
1040,-0.015601,0.066901,-0.182384,0.035364,9.576691,0.050093,-0.006666,-0.004158,0.002165,-0.053320,-0.136999,0.316856,-0.008461,0.004153,-0.022061,-0.016219,-0.018396,-0.708548,-0.007457,0.000000,0.000000,0.000000,0.000000,0.322439,0.000000,0.000000,100.000000,30.119440,-1.974000
1060,-0.011508,0.064019,-0.176167,0.039483,9.578622,0.057839,-0.007697,-0.002749,0.004845,-0.053317,-0.137015,0.316848,-0.006031,0.005300,-0.022277,-0.016219,-0.018343,-0.708584,0.022371,0.000000,0.000000,0.000000,0.000000,0.322446,0.000000,0.000000,100.000000,30.119440,-1.985000
1080,-0.004788,0.067274,-0.169911,0.042673,9.567462,0.058578,-0.007148,-0.002405,0.005086,-0.053291,-0.136992,0.316848,-0.015970,0.009501,-0.022235,-0.016204,-0.018332,-0.708345,0.011718,0.000000,0.000000,0.000000,0.000000,0.322440,0.000000,0.000000,100.000000,30.119440,-1.985000
1100,-0.018806,0.054256,-0.170799,0.041709,9.566419,0.056833,-0.007526,-0.001959,0.003505,-0.053250,-0.136979,0.316837,-0.008001,-0.002526,-0.022505,-0.016241,-0.018277,-0.708272,-0.003196,0.000000,0.000000,0.000000,0.000000,0.322440,0.000000,0.000000,100.000000,30.119440,-1.985000
1120,-0.032042,0.055728,-0.163803,0.034487,9.577683,0.050793,-0.008558,-0.003160,0.001740,-0.053263,-0.137000,0.316829,-0.009641,0.004753,-0.022273,-0.016283,-0.018250,-0.708514,-0.018109,0.000000,0.000000,0.000000,0.000000,0.322436,0.000000,0.000000,100.000000,30.119440,-1.985000
1140,-0.032013,0.053730,-0.165393,0.035997,9.575804,0.042774,-0.009656,-0.003368,0.001031,-0.053291,-0.137034,0.316822,0.004423,-0.014847,-0.022879,-0.016322,-0.018259,-0.708753,-0.007457,0.000000,0.000000,0.000000,0.000000,0.322439,0.000000,0.000000,100.000000,30.119440,-1.985000
1160,-0.018515,0.052859,-0.170188,0.032566,9.573295,0.034448,-0.009623,-0.004048,0.003977,-0.053275,-0.137031,0.316815,0.001574,-0.002955,-0.022524,-0.016357,-0.018231,-0.708615,0.027697,0.000000,0.000000,0.000000,0.000000,0.322443,0.000000,0.000000,100.000000,30.119440,-1.985000
1182,-0.012250,0.059367,-0.175974,0.038512,9.580119,0.024277,-0.009658,-0.005575,0.004155,-0.053239,-0.136973,0.316826,-0.007054,-0.012598,-0.022367,-0.016374,-0.018272,-0.708287,0.007457,0.000000,0.000000,0.000000,0.000000,0.322443,0.000000,0.000000,100.000000,30.119440,-1.985000
1199,-0.015176,0.058463,-0.181535,0.041854,9.578854,0.021963,-0.008831,-0.005704,0.001993,-0.053225,-0.136973,0.316821,0.006128,-0.003796,-0.022813,-0.016358,-0.018255,-0.708413,-0.008522,0.000000,0.000000,0.000000,0.000000,0.322437,0.000000,0.000000,100.000000,30.119440,-1.985000
1220,-0.020505,0.063641,-0.183774,0.043827,9.576998,0.027996,-0.008797,-0.006117,0.000825,-0.053260,-0.137019,0.316821,-0.006097,-0.000083,-0.022287,-0.016441,-0.018204,-0.708826,-0.017044,0.000000,0.000000,0.000000,0.000000,0.322440,0.000000,0.000000,100.000000,30.119440,-1.985000
1240,-0.017532,0.060810,-0.180067,0.043236,9.585301,0.032276,-0.007457,-0.005567,0.003093,-0.053298,-0.137050,0.316822,-0.012213,-0.013983,-0.021784,-0.016389,-0.018218,-0.708895,0.014914,0.000000,0.000000,0.000000,0.000000,0.322441,0.000000,0.000000,100.000000,30.110588,-1.985000
1261,-0.008109,0.064691,-0.182152,0.042465,9.575879,0.036229,-0.007938,-0.005086,0.006014,-0.053263,-0.137016,0.316825,0.003369,0.005748,-0.022311,-0.016401,-0.018233,-0.708612,0.023436,0.000000,0.000000,0.000000,0.000000,0.322440,0.000000,0.000000,100.000000,30.119440,-1.985000
1280,-0.016759,0.056941,-0.188872,0.034504,9.574993,0.036957,-0.008625,-0.003265,0.004261,-0.053225,-0.137002,0.316822,0.005513,-0.005349,-0.022779,-0.016405,-0.018193,-0.708468,0.005326,0.000000,0.000000,0.000000,0.000000,0.322440,0.000000,0.000000,100.000000,30.119440,-1.985000
1300,-0.030777,0.060034,-0.182848,0.032245,9.576076,0.035925,-0.008934,-0.003746,0.001993,-0.053248,-0.137017,0.316818,-0.006824,-0.002890,-0.022523,-0.016385,-0.018208,-0.708693,-0.015979,0.000000,0.000000,0.000000,0.000000,0.322436,0.000000,0.000000,100.000000,30.110588,-1.985000
1320,-0.031125,0.059476,-0.176669,0.036105,9.580359,0.032342,-0.008316,-0.004914,0.002990,-0.053306,-0.137069,0.316817,-0.015525,-0.017265,-0.022456,-0.016355,-0.018222,-0.708965,-0.003196,0.000000,0.000000,0.000000,0.000000,0.322435,0.000000,0.000000,100.000000,30.119440,-1.985000
1340,-0.017300,0.059728,-0.170915,0.037156,9.575569,0.026664,-0.009278,-0.005670,0.004777,-0.053274,-0.137036,0.316826,-0.006971,0.009308,-0.021551,-0.016422,-0.018217,-0.708897,0.011718,0.000000,0.000000,0.000000,0.000000,0.322435,0.000000,0.000000,100.000000,30.119440,-1.985000
1360,-0.010614,0.067598,-0.169350,0.040949,9.578960,0.023180,-0.008948,-0.005539,0.002770,-0.053258,-0.137026,0.316830,-0.000508,0.002711,-0.021883,-0.016424,-0.018200,-0.708736,0.024501,0.000000,0.000000,0.000000,0.000000,0.322443,0.000000,0.000000,100.000000,30.119440,-1.985000
1380,-0.017416,0.063532,-0.184354,0.047806,9.573253,0.027404,-0.007938,-0.004914,0.000515,-0.053244,-0.137035,0.316821,0.003116,-0.006715,-0.022834,-0.016396,-0.018161,-0.708777,-0.012783,0.000000,0.000000,0.000000,0.000000,0.322434,0.000000,0.000000,100.000000,30.119440,-1.985000
1400,-0.024102,0.071687,-0.186548,0.046490,9.577724,0.029534,-0.008629,-0.006285,0.001633,-0.053292,-0.137063,0.316808,-0.012972,-0.010293,-0.022493,-0.016422,-0.018179,-0.709042,-0.011718,0.000000,0.000000,0.000000,0.000000,0.322439,0.000000,0.000000,100.000000,30.119440,-1.985000
1420,-0.020670,0.068826,-0.183994,0.042820,9.579642,0.037336,-0.009090,-0.004581,0.003870,-0.053305,-0.137086,0.316819,-0.009587,-0.004254,-0.021863,-0.016385,-0.018161,-0.709089,0.014914,0.000000,0.000000,0.000000,0.000000,0.322442,0.000000,0.000000,100.000000,30.119440,-1.985000
1440,-0.010465,0.072258,-0.180453,0.043212,9.567694,0.038142,-0.008419,-0.004605,0.006426,-0.053281,-0.137081,0.316808,0.004755,-0.005265,-0.023007,-0.016345,-0.018144,-0.708865,0.019175,0.000000,0.000000,0.000000,0.000000,0.322439,0.000000,0.000000,100.000000,30.119440,-1.985000
1460,-0.015485,0.068072,-0.180453,0.043897,9.572985,0.042231,-0.007491,-0.005739,0.005326,-0.053291,-0.137054,0.316817,-0.000233,-0.005503,-0.022458,-0.016288,-0.018226,-0.708804,-0.004261,0.000000,0.000000,0.000000,0.000000,0.322443,0.000000,0.000000,100.000000,30.119440,-1.985000
1480,-0.028691,0.069963,-0.173500,0.037322,9.575809,0.044568,-0.008274,-0.006924,0.003586,-0.053303,-0.137085,0.316815,-0.000765,-0.008224,-0.022716,-0.016334,-0.018203,-0.709047,-0.006392,0.000000,0.000000,0.000000,0.000000,0.322442,0.000000,0.000000,100.000000,30.119440,-1.985000
1500,-0.024907,0.062288,-0.173271,0.038532,9.575031,0.045174,-0.007697,-0.005155,0.002577,-0.053363,-0.137135,0.316828,0.002833,-0.003393,-0.022043,-0.016255,-0.018222,-0.709344,-0.008522,0.000000,0.000000,0.000000,0.000000,0.322436,0.000000,0.000000,100.000000,30.119440,-1.985000
1520,-0.012782,0.057751,-0.173850,0.040222,9.571903,0.047104,-0.007869,-0.006598,0.004742,-0.053367,-0.137106,0.316846,-0.001243,0.000381,-0.021432,-0.016315,-0.018270,-0.709217,0.017044,0.000000,0.000000,0.000000,0.000000,0.322440,0.000000,0.000000,100.000000,30.119440,-1.985000
1540,-0.007821,0.063188,-0.180523,0.040000,9.580916,0.046617,-0.007989,-0.006001,0.004439,-0.053327,-0.137065,0.316861,-0.001424,-0.010675,-0.021573,-0.016297,-0.018262,-0.708889,0.013848,0.000000,0.000000,0.000000,0.000000,0.322445,0.000000,0.000000,100.000000,30.128294,-1.985000
1560,-0.019473,0.054704,-0.188264,0.036248,9.569185,0.049958,-0.008061,-0.004723,0.003515,-0.053315,-0.137070,0.316853,-0.006229,0.004456,-0.022118,-0.016271,-0.018234,-0.708909,-0.008522,0.000000,0.000000,0.000000,0.000000,0.322437,0.000000,0.000000,100.000000,30.119440,-1.994000
1580,-0.026695,0.058892,-0.186668,0.039670,9.574693,0.049260,-0.008806,-0.004758,0.002344,-0.053360,-0.137121,0.316836,-0.015470,-0.003402,-0.021767,-0.016234,-0.018194,-0.709275,-0.025566,0.000000,0.000000,0.000000,0.000000,0.322436,0.000000,0.000000,100.000000,30.119440,-1.994000
1600,-0.025950,0.057305,-0.175819,0.039519,9.579238,0.050709,-0.009003,-0.005910,0.002405,-0.053392,-0.137143,0.316835,-0.004527,-0.005853,-0.021924,-0.016260,-0.018246,-0.709429,-0.001065,0.000000,0.000000,0.000000,0.000000,0.322438,0.000000,0.000000,100.000000,30.119440,-1.994000
1620,-0.013786,0.064337,-0.173811,0.039424,9.569468,0.044238,-0.008316,-0.006082,0.004777,-0.053395,-0.137114,0.316843,-0.004745,-0.000390,-0.022113,-0.016246,-0.018323,-0.709222,0.011718,0.000000,0.000000,0.000000,0.000000,0.322442,0.000000,0.000000,100.000000,30.119440,-1.994000
1640,-0.024156,0.058572,-0.179993,0.037596,9.566331,0.045467,-0.007685,-0.005479,0.001598,-0.053387,-0.137065,0.316844,-0.018099,-0.007485,-0.022171,-0.016236,-0.018381,-0.709063,0.005326,0.000000,0.000000,0.000000,0.000000,0.322437,0.000000,0.000000,100.000000,30.119440,-1.994000
1660,-0.034075,0.058349,-0.179266,0.036548,9.579074,0.041010,-0.009093,-0.006392,-0.001370,-0.053391,-0.137080,0.316846,-0.015896,-0.000921,-0.022123,-0.016308,-0.018377,-0.709261,-0.013848,0.000000,0.000000,0.000000,0.000000,0.322439,0.000000,0.000000,100.000000,30.119440,-1.994000
1680,-0.033818,0.057437,-0.174264,0.030965,9.576081,0.041224,-0.008560,-0.006201,-0.001027,-0.053431,-0.137109,0.316846,-0.000315,-0.004716,-0.022655,-0.016310,-0.018375,-0.709519,-0.001065,0.000000,0.000000,0.000000,0.000000,0.322443,0.000000,0.000000,100.000000,30.119440,-1.994000
1700,-0.017999,0.054277,-0.175375,0.029590,9.575694,0.036447,-0.009245,-0.005897,0.003044,-0.053444,-0.137104,0.316853,-0.009773,-0.004464,-0.021857,-0.016309,-0.018421,-0.709420,0.011718,0.000000,0.000000,0.000000,0.000000,0.322446,0.000000,0.000000,100.000000,30.119440,-1.994000
1720,-0.012503,0.057563,-0.179343,0.030573,9.572684,0.040918,-0.009074,-0.006076,0.002841,-0.053410,-0.137073,0.316845,-0.005094,-0.009061,-0.023052,-0.016299,-0.018438,-0.709172,0.009587,0.000000,0.000000,0.000000,0.000000,0.322439,0.000000,0.000000,100.000000,30.119440,-1.994000
1740,-0.011855,0.056185,-0.182886,0.031726,9.571593,0.039165,-0.009450,-0.005326,0.002405,-0.053404,-0.137082,0.316849,0.006092,-0.005690,-0.022961,-0.016294,-0.018420,-0.709234,-0.004261,0.000000,0.000000,0.000000,0.000000,0.322436,0.000000,0.000000,100.000000,30.119440,-1.994000
1760,-0.015483,0.057697,-0.178248,0.034133,9.574332,0.031250,-0.007883,-0.005078,0.001953,-0.053435,-0.137113,0.316851,0.001432,-0.012584,-0.022708,-0.016322,-0.018419,-0.709502,-0.008522,0.000000,0.000000,0.000000,0.000000,0.322439,0.000000,0.000000,100.000000,30.119440,-1.994000
1780,-0.014829,0.055500,-0.169872,0.036592,9.577658,0.030138,-0.008282,-0.004158,0.003161,-0.053449,-0.137122,0.316854,0.004456,-0.003299,-0.022548,-0.016333,-0.018431,-0.709579,0.002131,0.000000,0.000000,0.000000,0.000000,0.322441,0.000000,0.000000,100.000000,30.119440,-1.994000
1800,-0.007861,0.054950,-0.167834,0.037441,9.572018,0.027416,-0.006072,-0.004226,0.004936,-0.053428,-0.137093,0.316848,0.005914,0.012420,-0.022606,-0.016339,-0.018446,-0.709397,0.021305,0.000000,0.000000,0.000000,0.000000,0.322444,0.000000,0.000000,100.000000,30.119440,-1.994000
1820,-0.012689,0.049401,-0.169909,0.037822,9.580037,0.021262,-0.006001,-0.003160,0.003799,-0.053423,-0.137082,0.316852,0.000549,-0.004912,-0.022581,-0.016309,-0.018463,-0.709262,0.004261,0.000000,0.000000,0.000000,0.000000,0.322434,0.000000,0.000000,100.000000,30.119440,-1.994000
1840,-0.024381,0.046530,-0.172303,0.039850,9.582595,0.019316,-0.006285,-0.002202,0.002308,-0.053410,-0.137093,0.316840,0.005484,-0.002925,-0.023025,-0.016329,-0.018407,-0.709396,-0.013848,0.000000,0.000000,0.000000,0.000000,0.322436,0.000000,0.000000,100.000000,30.119440,-1.994000
1860,-0.035411,0.055421,-0.174622,0.039292,9.581982,0.020443,-0.005773,-0.003196,0.002131,-0.053463,-0.137148,0.316842,-0.002634,-0.001502,-0.022519,-0.016288,-0.018394,-0.709716,-0.002131,0.000000,0.000000,0.000000,0.000000,0.322443,0.000000,0.000000,100.000000,30.119440,-1.994000
1880,-0.027997,0.056774,-0.177480,0.035786,9.582640,0.019825,-0.006254,-0.004399,0.004089,-0.053458,-0.137143,0.316828,0.007644,-0.000398,-0.023023,-0.016302,-0.018395,-0.709626,0.011718,0.000000,0.000000,0.000000,0.000000,0.322440,0.000000,0.000000,100.000000,30.119440,-1.994000
1900,-0.019632,0.065303,-0.183356,0.033205,9.579000,0.023245,-0.006214,-0.004119,0.005539,-0.053430,-0.137104,0.316818,0.002375,0.002555,-0.023529,-0.016256,-0.018420,-0.709299,0.021305,0.000000,0.000000,0.000000,0.000000,0.322446,0.000000,0.000000,100.000000,30.110588,-1.994000
1920,-0.020776,0.064630,-0.189798,0.029819,9.577733,0.029113,-0.006460,-0.003986,0.004124,-0.053405,-0.137099,0.316821,0.009742,0.010268,-0.023290,-0.016275,-0.018392,-0.709327,0.004261,0.000000,0.000000,0.000000,0.000000,0.322440,0.000000,0.000000,100.000000,30.119440,-1.994000
1940,-0.028730,0.068065,-0.186670,0.026907,9.577928,0.029235,-0.006357,-0.004708,0.002887,-0.053439,-0.137143,0.316818,-0.008333,-0.008174,-0.023091,-0.016286,-0.018339,-0.709646,-0.012783,0.000000,0.000000,0.000000,0.000000,0.322439,0.000000,0.000000,100.000000,30.119440,-1.994000
1960,-0.018227,0.060646,-0.179025,0.030650,9.577848,0.029417,-0.007732,-0.005155,0.004089,-0.053465,-0.137164,0.316825,-0.007937,-0.005277,-0.022622,-0.016297,-0.018348,-0.709750,0.000000,0.000000,0.000000,0.000000,0.000000,0.322449,0.000000,0.000000,100.000000,30.119440,-1.994000
1980,-0.000502,0.059558,-0.178329,0.031470,9.576149,0.028745,-0.006632,-0.006701,0.005739,-0.053459,-0.137127,0.316830,-0.012325,-0.003777,-0.022447,-0.016287,-0.018406,-0.709540,0.017044,0.000000,0.000000,0.000000,0.000000,0.322443,0.000000,0.000000,100.000000,30.119440,-1.994000
2002,0.000811,0.060680,-0.178020,0.032656,9.576303,0.030209,-0.006976,-0.006563,0.004021,-0.053428,-0.137112,0.316836,-0.004078,-0.007486,-0.022989,-0.016262,-0.018400,-0.709348,0.013848,0.000000,0.000000,0.000000,0.000000,0.322440,0.000000,0.000000,100.000000,30.119440,-1.994000
2020,-0.015203,0.062460,-0.177011,0.033561,9.573455,0.022621,-0.007563,-0.006463,0.001527,-0.053446,-0.137122,0.316828,-0.004203,-0.007053,-0.023320,-0.016289,-0.018415,-0.709558,-0.004261,0.000000,0.000000,0.000000,0.000000,0.322439,0.000000,0.000000,100.000000,30.119440,-1.994000
2040,-0.018236,0.065077,-0.173260,0.031683,9.574613,0.029305,-0.007173,-0.007137,0.001633,-0.053471,-0.137159,0.316834,0.009755,-0.009993,-0.022830,-0.016279,-0.018397,-0.709791,-0.005326,0.000000,0.000000,0.000000,0.000000,0.322441,0.000000,0.000000,100.000000,30.119440,-1.994000
2060,-0.012434,0.063967,-0.168637,0.030584,9.575108,0.029161,-0.007113,-0.007732,0.003505,-0.053484,-0.137139,0.316849,-0.004921,0.008470,-0.022055,-0.016295,-0.018464,-0.709729,0.020240,0.000000,0.000000,0.000000,0.000000,0.322445,0.000000,0.000000,100.000000,30.119440,-1.983000
2080,-0.010973,0.066587,-0.175096,0.029573,9.570065,0.033747,-0.007670,-0.005681,0.003657,-0.053460,-0.137107,0.316868,0.000426,0.001602,-0.022139,-0.016269,-0.018486,-0.709470,0.015979,0.000000,0.000000,0.000000,0.000000,0.322436,0.000000,0.000000,100.000000,30.119440,-1.983000
2100,-0.018994,0.060697,-0.179565,0.028835,9.570104,0.034423,-0.007989,-0.005042,0.003089,-0.053448,-0.137086,0.316866,0.003477,0.006652,-0.022355,-0.016304,-0.018493,-0.709399,0.006392,0.000000,0.000000,0.000000,0.000000,0.322436,0.000000,0.000000,100.000000,30.119440,-1.983000
2120,-0.026607,0.063088,-0.180067,0.028296,9.574451,0.035019,-0.007594,-0.005498,0.001821,-0.053470,-0.137152,0.316854,0.007945,-0.003018,-0.022791,-0.016298,-0.018412,-0.709806,-0.006392,0.000000,0.000000,0.000000,0.000000,0.322442,0.000000,0.000000,100.000000,30.119440,-1.983000
2140,-0.018767,0.056118,-0.173039,0.029542,9.568698,0.030542,-0.007285,-0.004399,0.003471,-0.053493,-0.137173,0.316850,-0.008556,-0.006256,-0.022841,-0.016310,-0.018380,-0.709942,0.010653,0.000000,0.000000,0.000000,0.000000,0.322446,0.000000,0.000000,100.000000,30.119440,-1.983000
2160,-0.008779,0.055766,-0.173420,0.033542,9.568545,0.030658,-0.007457,-0.004226,0.004119,-0.053490,-0.137145,0.316843,-0.008680,-0.004837,-0.022587,-0.016302,-0.018427,-0.709819,0.020240,0.000000,0.000000,0.000000,0.000000,0.322447,0.000000,0.000000,100.000000,30.119440,-1.983000
2180,-0.009075,0.053759,-0.169448,0.035283,9.564796,0.033574,-0.008350,-0.002990,0.005326,-0.053457,-0.137128,0.316851,0.001236,-0.008278,-0.023148,-0.016287,-0.018413,-0.709618,0.001065,0.000000,0.000000,0.000000,0.000000,0.322443,0.000000,0.000000,100.000000,30.119440,-1.983000
2200,-0.020698,0.049683,-0.177094,0.040864,9.564681,0.032324,-0.007319,-0.003471,0.003196,-0.053460,-0.137142,0.316845,0.006610,0.005775,-0.023239,-0.016303,-0.018397,-0.709751,-0.007457,0.000000,0.000000,0.000000,0.000000,0.322441,0.000000,0.000000,100.000000,30.119440,-1.983000
2221,-0.023264,0.050671,-0.179046,0.043929,9.566271,0.035949,-0.008025,-0.003018,0.004581,-0.053480,-0.137185,0.316836,-0.003501,0.003198,-0.022542,-0.016299,-0.018345,-0.709957,0.000000,0.000000,0.000000,0.000000,0.000000,0.322441,0.000000,0.000000,100.000000,30.119440,-1.983000
2240,-0.015522,0.050359,-0.175335,0.046783,9.574214,0.039732,-0.008806,-0.004084,0.006108,-0.053478,-0.137165,0.316830,-0.002432,0.000050,-0.022449,-0.016338,-0.018360,-0.709843,0.017044,0.000000,0.000000,0.000000,0.000000,0.322443,0.000000,0.000000,100.000000,30.110588,-1.983000
2260,-0.008457,0.053439,-0.177905,0.045255,9.565376,0.043911,-0.008488,-0.004124,0.008488,-0.053446,-0.137129,0.316837,-0.000120,0.008635,-0.022999,-0.016304,-0.018383,-0.709575,0.015979,0.000000,0.000000,0.000000,0.000000,0.322439,0.000000,0.000000,100.000000,30.119440,-1.983000
2280,-0.017502,0.050362,-0.187615,0.043234,9.568056,0.042108,-0.008485,-0.005730,0.003930,-0.053437,-0.137132,0.316835,-0.010123,0.002301,-0.022730,-0.016333,-0.018346,-0.709606,-0.002131,0.000000,0.000000,0.000000,0.000000,0.322436,0.000000,0.000000,100.000000,30.119440,-1.983000
2300,-0.026997,0.055878,-0.185551,0.042352,9.574825,0.041179,-0.009330,-0.005069,0.002020,-0.053458,-0.137183,0.316832,0.004632,0.005283,-0.022674,-0.016322,-0.018286,-0.709910,-0.011718,0.000000,0.000000,0.000000,0.000000,0.322443,0.000000,0.000000,100.000000,30.119440,-1.983000
2320,-0.027244,0.057091,-0.181547,0.039622,9.569706,0.038034,-0.008963,-0.005804,0.003269,-0.053469,-0.137204,0.316838,0.004495,-0.000789,-0.022569,-0.016353,-0.018274,-0.710020,0.004261,0.000000,0.000000,0.000000,0.000000,0.322446,0.000000,0.000000,100.000000,30.119440,-1.983000
2339,-0.017797,0.059657,-0.182518,0.036103,9.564198,0.037237,-0.008416,-0.005752,0.005291,-0.053458,-0.137171,0.316847,0.003580,-0.001145,-0.022554,-0.016330,-0.018314,-0.709819,0.019175,0.000000,0.000000,0.000000,0.000000,0.322444,0.000000,0.000000,100.000000,30.119440,-1.983000
2360,-0.017318,0.060160,-0.185351,0.033162,9.570383,0.036174,-0.008487,-0.005539,0.005823,-0.053431,-0.137125,0.316847,-0.007018,0.004690,-0.022433,-0.016322,-0.018354,-0.709552,0.013848,0.000000,0.000000,0.000000,0.000000,0.322440,0.000000,0.000000,100.000000,30.119440,-1.983000
2380,-0.021029,0.059689,-0.185112,0.029275,9.565953,0.036082,-0.008203,-0.004403,0.004403,-0.053434,-0.137166,0.316838,-0.007811,-0.010846,-0.023113,-0.016312,-0.018305,-0.709712,-0.005326,0.000000,0.000000,0.000000,0.000000,0.322435,0.000000,0.000000,100.000000,30.119440,-1.983000
2400,-0.024598,0.059650,-0.181650,0.024630,9.566303,0.033198,-0.008247,-0.005739,0.002268,-0.053469,-0.137190,0.316842,-0.008919,0.008208,-0.022093,-0.016329,-0.018295,-0.710027,-0.008522,0.000000,0.000000,0.000000,0.000000,0.322439,0.000000,0.000000,100.000000,30.128294,-1.983000
2420,-0.013632,0.055033,-0.172653,0.027996,9.569510,0.032914,-0.008385,-0.006838,0.003093,-0.053486,-0.137188,0.316852,-0.004662,-0.001861,-0.021949,-0.016354,-0.018343,-0.710014,0.005326,0.000000,0.000000,0.000000,0.000000,0.322441,0.000000,0.000000,100.000000,30.119440,-1.983000
2440,-0.005267,0.060517,-0.173939,0.029274,9.572138,0.036460,-0.008096,-0.006711,0.004155,-0.053469,-0.137146,0.316853,-0.007607,-0.002024,-0.022199,-0.016334,-0.018383,-0.709723,0.021305,0.000000,0.000000,0.000000,0.000000,0.322444,0.000000,0.000000,100.000000,30.119440,-1.983000
2460,-0.013168,0.059197,-0.178767,0.034741,9.572019,0.032841,-0.007883,-0.005042,0.001456,-0.053415,-0.137147,0.316845,0.004588,-0.000711,-0.022659,-0.016375,-0.018281,-0.709684,-0.011718,0.000000,0.000000,0.000000,0.000000,0.322443,0.000000,0.000000,100.000000,30.119440,-1.983000
2479,-0.024753,0.060878,-0.177094,0.034090,9.577155,0.036759,-0.008178,-0.005601,0.000447,-0.053448,-0.137176,0.316841,-0.015070,-0.005263,-0.022001,-0.016390,-0.018270,-0.709957,-0.010653,0.000000,0.000000,0.000000,0.000000,0.322433,0.000000,0.000000,100.000000,30.119440,-1.983000
2500,-0.024381,0.062410,-0.174098,0.037521,9.574493,0.038193,-0.007705,-0.004758,0.002308,-0.053500,-0.137212,0.316846,-0.001776,-0.000280,-0.022114,-0.016354,-0.018321,-0.710171,-0.011718,0.000000,0.000000,0.000000,0.000000,0.322436,0.000000,0.000000,100.000000,30.119440,-1.983000
2520,-0.011851,0.061941,-0.178488,0.033937,9.572577,0.043013,-0.007421,-0.003906,0.003551,-0.053487,-0.137188,0.316855,-0.015230,0.009207,-0.021553,-0.016378,-0.018304,-0.710037,0.021305,0.000000,0.000000,0.000000,0.000000,0.322450,0.000000,0.000000,100.000000,30.119440,-1.983000
2540,-0.013328,0.060106,-0.178607,0.033640,9.573016,0.044473,-0.008664,-0.002876,0.003018,-0.053467,-0.137157,0.316854,0.004293,-0.020429,-0.022655,-0.016368,-0.018359,-0.709756,0.005326,0.000000,0.000000,0.000000,0.000000,0.322439,0.000000,0.000000,100.000000,30.119440,-1.983000
2560,-0.017339,0.056195,-0.180917,0.028828,9.570318,0.041817,-0.009038,-0.002783,0.000997,-0.053448,-0.137172,0.316838,0.007056,-0.006356,-0.023207,-0.016374,-0.018299,-0.709867,-0.008522,0.000000,0.000000,0.000000,0.000000,0.322436,0.000000,0.000000,100.000000,30.119440,-1.968000
2580,-0.024405,0.062346,-0.180067,0.028483,9.573331,0.043005,-0.008110,-0.003986,0.000928,-0.053476,-0.137215,0.316824,0.002105,-0.014167,-0.023010,-0.016364,-0.018264,-0.710131,-0.013848,0.000000,0.000000,0.000000,0.000000,0.322446,0.000000,0.000000,100.000000,30.119440,-1.968000
2600,-0.013709,0.057049,-0.172537,0.024957,9.570898,0.040464,-0.008797,-0.002818,0.004639,-0.053494,-0.137223,0.316827,-0.003766,0.002007,-0.022507,-0.016346,-0.018267,-0.710170,0.006392,0.000000,0.000000,0.000000,0.000000,0.322443,0.000000,0.000000,100.000000,30.119440,-1.968000
2620,-0.004132,0.059392,-0.171108,0.024156,9.568003,0.037039,-0.009141,-0.002749,0.006529,-0.053459,-0.137205,0.316828,0.009261,-0.003743,-0.022937,-0.016335,-0.018255,-0.709933,0.011718,0.000000,0.000000,0.000000,0.000000,0.322437,0.000000,0.000000,100.000000,30.119440,-1.968000
2640,-0.009191,0.057405,-0.180762,0.027412,9.569432,0.033741,-0.008625,-0.002715,0.004364,-0.053455,-0.137194,0.316831,0.012663,-0.000357,-0.022688,-0.016327,-0.018288,-0.709896,0.001065,0.000000,0.000000,0.000000,0.000000,0.322436,0.000000,0.000000,100.000000,30.119440,-1.968000
2660,-0.020737,0.058978,-0.183234,0.032538,9.571711,0.033240,-0.008350,-0.003436,0.003230,-0.053490,-0.137215,0.316826,0.001149,-0.002920,-0.022908,-0.016320,-0.018293,-0.710103,-0.007457,0.000000,0.000000,0.000000,0.000000,0.322438,0.000000,0.000000,100.000000,30.119440,-1.968000
2680,-0.020389,0.058328,-0.183813,0.034882,9.567694,0.030360,-0.008213,-0.003986,0.002818,-0.053498,-0.137237,0.316816,0.001184,-0.008588,-0.023168,-0.016376,-0.018266,-0.710287,-0.001065,0.000000,0.000000,0.000000,0.000000,0.322439,0.000000,0.000000,100.000000,30.119440,-1.968000
2700,-0.005483,0.055518,-0.179372,0.038007,9.573487,0.034092,-0.008660,-0.004192,0.004983,-0.053468,-0.137219,0.316825,0.019766,-0.002079,-0.022550,-0.016413,-0.018247,-0.710115,0.026632,0.000000,0.000000,0.000000,0.000000,0.322440,0.000000,0.000000,100.000000,30.119440,-1.968000
2720,-0.009297,0.053555,-0.180563,0.039105,9.577804,0.031601,-0.008309,-0.004403,0.003870,-0.053445,-0.137186,0.316831,-0.002308,0.016460,-0.021973,-0.016410,-0.018246,-0.709936,0.003196,0.000000,0.000000,0.000000,0.000000,0.322440,0.000000,0.000000,100.000000,30.110588,-1.968000
2740,-0.016991,0.051535,-0.183658,0.040716,9.576459,0.032220,-0.008282,-0.004605,0.001478,-0.053470,-0.137217,0.316827,-0.006948,-0.003677,-0.022351,-0.016391,-0.018232,-0.710129,-0.020240,0.000000,0.000000,0.000000,0.000000,0.322433,0.000000,0.000000,100.000000,30.119440,-1.968000
2760,-0.021468,0.055204,-0.177650,0.037002,9.581955,0.028421,-0.008984,-0.004794,0.000675,-0.053497,-0.137249,0.316812,-0.009123,-0.008791,-0.022591,-0.016457,-0.018207,-0.710476,-0.004261,0.000000,0.000000,0.000000,0.000000,0.322440,0.000000,0.000000,100.000000,30.110588,-1.968000
2780,-0.017377,0.052359,-0.168019,0.036715,9.585727,0.024223,-0.009725,-0.004880,0.002887,-0.053482,-0.137246,0.316815,-0.005996,0.007498,-0.021907,-0.016507,-0.018182,-0.710478,0.012783,0.000000,0.000000,0.000000,0.000000,0.322446,0.000000,0.000000,100.000000,30.119440,-1.968000
2800,-0.009152,0.055828,-0.175202,0.038095,9.576344,0.023498,-0.008831,-0.004364,0.004914,-0.053461,-0.137222,0.316805,-0.002327,-0.015821,-0.023227,-0.016499,-0.018185,-0.710203,0.015979,0.000000,0.000000,0.000000,0.000000,0.322447,0.000000,0.000000,100.000000,30.110588,-1.968000
2820,-0.012929,0.054756,-0.183276,0.040909,9.576288,0.026183,-0.009871,-0.003338,0.003515,-0.053417,-0.137202,0.316802,-0.005473,-0.009168,-0.022770,-0.016553,-0.018132,-0.710113,-0.007457,0.000000,0.000000,0.000000,0.000000,0.322437,0.000000,0.000000,100.000000,30.119440,-1.968000
2840,-0.018883,0.055472,-0.179140,0.037679,9.577810,0.024662,-0.009278,-0.003127,0.002199,-0.053428,-0.137246,0.316800,0.006269,-0.014121,-0.022811,-0.016553,-0.018078,-0.710345,-0.019175,0.000000,0.000000,0.000000,0.000000,0.322436,0.000000,0.000000,100.000000,30.119440,-1.968000
2860,-0.016489,0.053527,-0.173657,0.038662,9.578467,0.025542,-0.008694,-0.003608,0.003608,-0.053465,-0.137267,0.316793,-0.008751,-0.004514,-0.022313,-0.016534,-0.018078,-0.710544,0.004261,0.000000,0.000000,0.000000,0.000000,0.322443,0.000000,0.000000,100.000000,30.119440,-1.968000
2880,-0.005677,0.050140,-0.173618,0.037706,9.576344,0.028382,-0.008247,-0.003436,0.003814,-0.053458,-0.137267,0.316791,-0.013329,-0.011233,-0.022227,-0.016532,-0.018053,-0.710453,0.002131,0.000000,0.000000,0.000000,0.000000,0.322443,0.000000,0.000000,100.000000,30.119440,-1.968000
2900,-0.002274,0.054846,-0.175535,0.034851,9.577326,0.028178,-0.009800,-0.003551,0.002024,-0.053428,-0.137245,0.316791,-0.000582,0.010858,-0.022183,-0.016516,-0.018061,-0.710305,0.006392,0.000000,0.000000,0.000000,0.000000,0.322440,0.000000,0.000000,100.000000,30.119440,-1.968000
2920,-0.011353,0.050656,-0.178909,0.035170,9.578774,0.028568,-0.008694,-0.004124,0.000722,-0.053444,-0.137274,0.316792,0.002727,-0.015851,-0.022729,-0.016483,-0.018048,-0.710421,-0.003196,0.000000,0.000000,0.000000,0.000000,0.322436,0.000000,0.000000,100.000000,30.119440,-1.968000
2940,-0.015642,0.053314,-0.180283,0.035788,9.575610,0.028919,-0.008558,-0.003693,0.000675,-0.053492,-0.137295,0.316796,-0.011159,0.004823,-0.021869,-0.016480,-0.018080,-0.710730,0.005326,0.000000,0.000000,0.000000,0.000000,0.322441,0.000000,0.000000,100.000000,30.119440,-1.968000
2960,-0.015485,0.053945,-0.175472,0.038292,9.583372,0.033931,-0.010000,-0.003677,0.003849,-0.053475,-0.137289,0.316792,-0.000974,0.002233,-0.021911,-0.016543,-0.018061,-0.710651,0.018109,0.000000,0.000000,0.000000,0.000000,0.322442,0.000000,0.000000,100.000000,30.119440,-1.968000
2980,-0.006624,0.059608,-0.179406,0.036540,9.580079,0.030845,-0.010333,-0.002876,0.005965,-0.053445,-0.137256,0.316786,-0.000554,-0.002505,-0.022423,-0.016546,-0.018066,-0.710417,0.010653,0.000000,0.000000,0.000000,0.000000,0.322442,0.000000,0.000000,100.000000,30.119440,-1.968000
3000,-0.011572,0.056073,-0.181042,0.039679,9.574892,0.037467,-0.010262,-0.002521,0.005220,-0.053425,-0.137243,0.316775,0.003519,-0.003438,-0.023602,-0.016566,-0.018054,-0.710343,0.006392,0.000000,0.000000,0.000000,0.000000,0.322436,0.000000,0.000000,100.000000,30.110588,-1.968000
3020,-0.020191,0.056938,-0.177610,0.038309,9.579281,0.036296,-0.011221,-0.003586,0.002841,-0.053460,-0.137261,0.316767,-0.018648,-0.005448,-0.022747,-0.016601,-0.018064,-0.710616,-0.001065,0.000000,0.000000,0.000000,0.000000,0.322436,0.000000,0.000000,100.000000,30.110588,-1.968000
3040,-0.027263,0.062325,-0.169177,0.036951,9.580668,0.036515,-0.011752,-0.004605,0.004639,-0.053481,-0.137290,0.316770,-0.002434,-0.000928,-0.022798,-0.016612,-0.018062,-0.710800,0.010653,0.000000,0.000000,0.000000,0.000000,0.322440,0.000000,0.000000,100.000000,30.110588,-1.968000
3060,-0.014565,0.058403,-0.171225,0.033333,9.569225,0.034953,-0.010546,-0.004439,0.004936,-0.053478,-0.137272,0.316772,-0.006370,-0.000057,-0.023038,-0.016616,-0.018108,-0.710692,0.015979,0.000000,0.000000,0.000000,0.000000,0.322443,0.000000,0.000000,100.000000,30.110588,-1.978000
3080,-0.005020,0.065259,-0.172228,0.034804,9.565259,0.036208,-0.010103,-0.004124,0.006082,-0.053441,-0.137244,0.316773,0.002347,-0.001342,-0.023408,-0.016599,-0.018096,-0.710433,0.010653,0.000000,0.000000,0.000000,0.000000,0.322437,0.000000,0.000000,100.000000,30.119440,-1.978000
3100,-0.016335,0.060079,-0.176939,0.030767,9.571517,0.031112,-0.009519,-0.004055,0.004261,-0.053459,-0.137236,0.316771,-0.007433,-0.002468,-0.023334,-0.016588,-0.018137,-0.710533,-0.008522,0.000000,0.000000,0.000000,0.000000,0.322439,0.000000,0.000000,100.000000,30.119440,-1.978000
3120,-0.024714,0.064889,-0.174313,0.035492,9.562750,0.030855,-0.009244,-0.004570,0.003333,-0.053507,-0.137283,0.316768,-0.005666,-0.011220,-0.023776,-0.016588,-0.018153,-0.710888,-0.014914,0.000000,0.000000,0.000000,0.000000,0.322436,0.000000,0.000000,100.000000,30.119440,-1.978000
3140,-0.015483,0.058009,-0.173021,0.029741,9.562321,0.030785,-0.008593,-0.003799,0.003728,-0.053533,-0.137301,0.316767,0.004460,0.000551,-0.023547,-0.016553,-0.018166,-0.710993,0.001065,0.000000,0.000000,0.000000,0.000000,0.322441,0.000000,0.000000,100.000000,30.119440,-1.978000
3160,-0.005870,0.061647,-0.176939,0.029047,9.562596,0.034446,-0.008316,-0.004227,0.005636,-0.053496,-0.137258,0.316766,-0.001725,-0.000402,-0.023836,-0.016584,-0.018184,-0.710652,0.014914,0.000000,0.000000,0.000000,0.000000,0.322440,0.000000,0.000000,100.000000,30.119440,-1.978000
3180,-0.012689,0.057286,-0.179924,0.027538,9.567748,0.032881,-0.008025,-0.003941,0.003586,-0.053480,-0.137237,0.316766,-0.005776,-0.000251,-0.023588,-0.016558,-0.018192,-0.710503,0.009587,0.000000,0.000000,0.000000,0.000000,0.322440,0.000000,0.000000,100.000000,30.119440,-1.978000
3200,-0.025564,0.058270,-0.178059,0.027532,9.570395,0.031170,-0.008385,-0.004742,0.001924,-0.053499,-0.137256,0.316774,-0.003143,-0.003865,-0.023351,-0.016568,-0.018176,-0.710714,-0.009587,0.000000,0.000000,0.000000,0.000000,0.322436,0.000000,0.000000,100.000000,30.119440,-1.978000
3221,-0.026838,0.059766,-0.176669,0.026071,9.575456,0.028680,-0.008419,-0.005739,0.002062,-0.053534,-0.137282,0.316792,-0.007820,-0.001448,-0.022497,-0.016602,-0.018193,-0.710969,-0.005326,0.000000,0.000000,0.000000,0.000000,0.322439,0.000000,0.000000,100.000000,30.119440,-1.978000
3240,-0.011971,0.061590,-0.174429,0.026914,9.576228,0.029790,-0.009244,-0.006323,0.004502,-0.053526,-0.137260,0.316787,-0.002988,-0.003295,-0.022832,-0.016626,-0.018225,-0.710828,0.017044,0.000000,0.000000,0.000000,0.000000,0.322446,0.000000,0.000000,100.000000,30.119440,-1.978000
3260,-0.006784,0.066011,-0.174697,0.027370,9.579081,0.024810,-0.009445,-0.005149,0.004261,-0.053521,-0.137206,0.316811,-0.010738,-0.005964,-0.024665,-0.016614,-0.018234,-0.710534,0.018109,0.000000,0.000000,0.000000,0.000000,0.322440,0.000000,0.000000,100.000000,30.110588,-1.978000
3280,-0.015123,0.062759,-0.177011,0.031002,9.576208,0.025146,-0.009019,-0.006108,0.002592,-0.053515,-0.137204,0.316852,0.003010,-0.008898,-0.026336,-0.016599,-0.018230,-0.710591,-0.007457,0.000000,0.000000,0.000000,0.000000,0.322437,0.000000,0.000000,100.000000,30.110588,-1.978000
3300,-0.017261,0.062376,-0.177673,0.030940,9.578738,0.025381,-0.009381,-0.005051,0.001409,-0.053540,-0.137258,0.316852,-0.007615,-0.008151,-0.024778,-0.016638,-0.018222,-0.710902,-0.005326,0.000000,0.000000,0.000000,0.000000,0.322439,0.000000,0.000000,100.000000,30.119440,-1.978000
3320,-0.007183,0.056818,-0.173101,0.031991,9.580956,0.023498,-0.009055,-0.005291,0.003941,-0.053550,-0.137264,0.316839,-0.012839,0.006779,-0.023729,-0.016645,-0.018253,-0.710958,0.009587,0.000000,0.000000,0.000000,0.000000,0.322443,0.000000,0.000000,100.000000,30.119440,-1.978000
3340,-0.002274,0.055599,-0.171146,0.032944,9.579599,0.024407,-0.008735,-0.005042,0.004190,-0.053544,-0.137258,0.316838,-0.011457,0.003956,-0.023648,-0.016635,-0.018267,-0.710888,0.013848,0.000000,0.000000,0.000000,0.000000,0.322446,0.000000,0.000000,100.000000,30.119440,-1.978000
3360,-0.012356,0.049558,-0.179351,0.032955,9.573215,0.019568,-0.007799,-0.003690,0.003158,-0.053499,-0.137204,0.316820,-0.008335,0.000860,-0.024079,-0.016656,-0.018252,-0.710537,0.001065,0.000000,0.000000,0.000000,0.000000,0.322440,0.000000,0.000000,100.000000,30.128294,-1.978000
3380,-0.029928,0.048961,-0.178634,0.030005,9.578670,0.025243,-0.008404,-0.003945,0.001381,-0.053503,-0.137227,0.316814,-0.000805,-0.002219,-0.023360,-0.016659,-0.018219,-0.710752,-0.010653,0.000000,0.000000,0.000000,0.000000,0.322441,0.000000,0.000000,100.000000,30.119440,-1.978000
3400,-0.034539,0.053186,-0.177526,0.030353,9.574635,0.025209,-0.007970,-0.003867,0.002052,-0.053541,-0.137268,0.316807,-0.008896,-0.006907,-0.023280,-0.016660,-0.018195,-0.711020,-0.005326,0.000000,0.000000,0.000000,0.000000,0.322442,0.000000,0.000000,100.000000,30.119440,-1.978000
3420,-0.027662,0.054926,-0.177684,0.026088,9.566461,0.026909,-0.008865,-0.003196,0.005212,-0.053530,-0.137261,0.316793,-0.004228,0.005335,-0.023508,-0.016658,-0.018171,-0.710874,0.008522,0.000000,0.000000,0.000000,0.000000,0.322447,0.000000,0.000000,100.000000,30.128294,-1.978000
3440,-0.019308,0.058087,-0.178020,0.024549,9.568622,0.037236,-0.009141,-0.003746,0.006357,-0.053484,-0.137224,0.316792,0.006002,0.007343,-0.023027,-0.016653,-0.018182,-0.710596,0.010653,0.000000,0.000000,0.000000,0.000000,0.322441,0.000000,0.000000,100.000000,30.119440,-1.978000
3460,-0.025658,0.057248,-0.178727,0.024750,9.568864,0.041204,-0.009197,-0.004084,0.004439,-0.053488,-0.137230,0.316771,-0.004140,-0.012331,-0.024461,-0.016623,-0.018164,-0.710622,-0.009587,0.000000,0.000000,0.000000,0.000000,0.322437,0.000000,0.000000,100.000000,30.119440,-1.978000
3480,-0.029489,0.059680,-0.180882,0.025258,9.568665,0.039035,-0.009374,-0.002699,0.003160,-0.053488,-0.137260,0.316772,-0.002660,-0.002054,-0.023664,-0.016649,-0.018099,-0.710811,-0.014914,0.000000,0.000000,0.000000,0.000000,0.322442,0.000000,0.000000,100.000000,30.119440,-1.978000
3500,-0.017957,0.052318,-0.176652,0.029524,9.572416,0.041212,-0.008771,-0.003977,0.004261,-0.053537,-0.137315,0.316775,-0.001748,-0.006645,-0.023101,-0.016568,-0.018095,-0.711037,0.012783,0.000000,0.000000,0.000000,0.000000,0.322443,0.000000,0.000000,100.000000,30.119440,-1.978000
3520,-0.001077,0.054210,-0.179286,0.029425,9.573136,0.043360,-0.006356,-0.004368,0.005504,-0.053539,-0.137301,0.316774,-0.010849,-0.001835,-0.023209,-0.016511,-0.018113,-0.710782,0.027697,0.000000,0.000000,0.000000,0.000000,0.322440,0.000000,0.000000,100.000000,30.119440,-1.978000
3540,-0.000660,0.057460,-0.183982,0.032834,9.574827,0.034965,-0.005877,-0.003526,0.004335,-0.053498,-0.137272,0.316770,-0.001009,0.009818,-0.022998,-0.016535,-0.018114,-0.710619,0.007457,0.000000,0.000000,0.000000,0.000000,0.322440,0.000000,0.000000,100.000000,30.119440,-1.978000
3560,-0.013168,0.058485,-0.182797,0.032126,9.581755,0.030470,-0.006534,-0.003409,0.002628,-0.053523,-0.137278,0.316766,-0.014501,-0.017751,-0.022952,-0.016515,-0.018135,-0.710779,-0.008522,0.000000,0.000000,0.000000,0.000000,0.322444,0.000000,0.000000,100.000000,30.110588,-1.952000
3580,-0.018343,0.061227,-0.178522,0.036059,9.577078,0.032670,-0.006495,-0.004261,0.002371,-0.053550,-0.137322,0.316772,-0.011469,-0.004864,-0.022987,-0.016535,-0.018098,-0.711064,-0.003196,0.000000,0.000000,0.000000,0.000000,0.322440,0.000000,0.000000,100.000000,30.119440,-1.952000
3600,-0.014445,0.061297,-0.171305,0.038709,9.578802,0.035201,-0.007954,-0.003799,0.004332,-0.053551,-0.137306,0.316783,-0.002116,0.001474,-0.022215,-0.016565,-0.018145,-0.711026,0.011718,0.000000,0.000000,0.000000,0.000000,0.322440,0.000000,0.000000,100.000000,30.119440,-1.952000
3620,-0.014046,0.061496,-0.173739,0.038087,9.585824,0.030965,-0.009942,-0.004261,0.004084,-0.053540,-0.137264,0.316812,0.001066,0.003326,-0.021667,-0.016592,-0.018214,-0.710836,0.010653,0.000000,0.000000,0.000000,0.000000,0.322443,0.000000,0.000000,100.000000,30.110588,-1.952000
3640,-0.021548,0.054196,-0.180029,0.038778,9.576572,0.035322,-0.010068,-0.005326,0.002887,-0.053519,-0.137256,0.316810,0.002140,-0.002937,-0.022775,-0.016617,-0.018180,-0.710819,-0.001065,0.000000,0.000000,0.000000,0.000000,0.322440,0.000000,0.000000,100.000000,30.119440,-1.952000
3660,-0.028611,0.058884,-0.180563,0.040660,9.577526,0.037918,-0.010582,-0.006036,0.002202,-0.053530,-0.137284,0.316791,0.001186,-0.002091,-0.022822,-0.016669,-0.018149,-0.711069,-0.006392,0.000000,0.000000,0.000000,0.000000,0.322443,0.000000,0.000000,100.000000,30.119440,-1.952000
3680,-0.022386,0.054996,-0.176652,0.043524,9.586823,0.038824,-0.009800,-0.005894,0.003906,-0.053564,-0.137305,0.316793,-0.001289,-0.007235,-0.022391,-0.016640,-0.018166,-0.711164,-0.003196,0.000000,0.000000,0.000000,0.000000,0.322443,0.000000,0.000000,100.000000,30.119440,-1.952000
3700,-0.005368,0.061001,-0.178329,0.039249,9.577386,0.037123,-0.008660,-0.005979,0.004948,-0.053560,-0.137285,0.316810,0.005522,-0.002107,-0.022553,-0.016599,-0.018215,-0.711022,0.012783,0.000000,0.000000,0.000000,0.000000,0.322440,0.000000,0.000000,100.000000,30.110588,-1.952000
3720,-0.003089,0.063699,-0.180994,0.042464,9.572713,0.035681,-0.008591,-0.005842,0.004261,-0.053524,-0.137258,0.316811,0.006598,-0.002267,-0.022561,-0.016619,-0.018199,-0.710864,-0.001065,0.000000,0.000000,0.000000,0.000000,0.322437,0.000000,0.000000,100.000000,30.119440,-1.952000
3740,-0.009776,0.063464,-0.176932,0.040390,9.582913,0.033061,-0.008629,-0.004687,0.001704,-0.053544,-0.137287,0.316814,-0.011040,-0.008036,-0.022026,-0.016638,-0.018177,-0.711111,-0.009587,0.000000,0.000000,0.000000,0.000000,0.322440,0.000000,0.000000,100.000000,30.119440,-1.952000
3760,-0.010574,0.064098,-0.175535,0.037799,9.577845,0.032796,-0.007812,-0.004971,0.001456,-0.053579,-0.137357,0.316821,-0.003561,-0.004484,-0.022129,-0.016603,-0.018103,-0.711370,0.010653,0.000000,0.000000,0.000000,0.000000,0.322436,0.000000,0.000000,100.000000,30.101734,-1.952000
3780,-0.003823,0.058644,-0.175819,0.030546,9.576692,0.035064,-0.008282,-0.005533,0.003505,-0.053564,-0.137331,0.316818,-0.011632,-0.001051,-0.021479,-0.016628,-0.018104,-0.711207,0.011718,0.000000,0.000000,0.000000,0.000000,0.322440,0.000000,0.000000,100.000000,30.110588,-1.952000
3800,-0.009776,0.054084,-0.175176,0.038234,9.582952,0.038272,-0.007705,-0.004119,0.006001,-0.053522,-0.137315,0.316813,-0.001911,-0.005237,-0.021885,-0.016558,-0.018068,-0.710921,0.015979,0.000000,0.000000,0.000000,0.000000,0.322437,0.000000,0.000000,100.000000,30.119440,-1.952000
3820,-0.023184,0.042913,-0.179445,0.040360,9.578322,0.043966,-0.007812,-0.003125,0.004190,-0.053504,-0.137316,0.316818,0.008825,-0.009735,-0.022514,-0.016567,-0.018050,-0.710896,-0.004261,0.000000,0.000000,0.000000,0.000000,0.322433,0.000000,0.000000,100.000000,30.110588,-1.952000
3840,-0.042246,0.052665,-0.177750,0.039992,9.579821,0.046191,-0.008556,-0.003402,0.002646,-0.053530,-0.137354,0.316804,-0.001957,-0.013679,-0.022157,-0.016614,-0.018005,-0.711275,-0.018109,0.000000,0.000000,0.000000,0.000000,0.322432,0.000000,0.000000,100.000000,30.119440,-1.952000
3860,-0.039385,0.053319,-0.174777,0.040930,9.587062,0.046605,-0.008842,-0.003870,0.004652,-0.053570,-0.137379,0.316810,0.014093,-0.012965,-0.021801,-0.016562,-0.018054,-0.711358,0.010653,0.000000,0.000000,0.000000,0.000000,0.322436,0.000000,0.000000,100.000000,30.119440,-1.952000
3880,-0.025564,0.060774,-0.176746,0.042419,9.579354,0.042072,-0.008591,-0.004192,0.006460,-0.053551,-0.137348,0.316815,0.010398,0.013114,-0.021674,-0.016579,-0.018071,-0.711139,0.027697,0.000000,0.000000,0.000000,0.000000,0.322443,0.000000,0.000000,100.000000,30.119440,-1.952000
3900,-0.018150,0.069235,-0.183350,0.036726,9.579240,0.038855,-0.008866,-0.004467,0.005189,-0.053545,-0.137298,0.316826,-0.004308,-0.006877,-0.021301,-0.016593,-0.018157,-0.710916,0.008522,0.000000,0.000000,0.000000,0.000000,0.322437,0.000000,0.000000,100.000000,30.119440,-1.952000
3920,-0.019074,0.069965,-0.181161,0.032686,9.587619,0.031025,-0.007989,-0.004829,0.002379,-0.053557,-0.137324,0.316823,0.009693,-0.026665,-0.022066,-0.016557,-0.018145,-0.711125,-0.017044,0.000000,0.000000,0.000000,0.000000,0.322440,0.000000,0.000000,100.000000,30.119440,-1.952000
3940,-0.007701,0.058476,-0.181361,0.032770,9.585904,0.030602,-0.007705,-0.005149,0.003870,-0.053584,-0.137354,0.316820,-0.012929,0.002891,-0.021270,-0.016634,-0.018111,-0.711378,-0.001065,0.000000,0.000000,0.000000,0.000000,0.322438,0.000000,0.000000,100.000000,30.110588,-1.952000
3960,0.004828,0.048804,-0.172223,0.036629,9.585706,0.030102,-0.008877,-0.005575,0.004936,-0.053604,-0.137347,0.316826,-0.005503,-0.011290,-0.021243,-0.016610,-0.018182,-0.711326,0.022371,0.000000,0.000000,0.000000,0.000000,0.322440,0.000000,0.000000,100.000000,30.110588,-1.952000
3980,0.011006,0.051490,-0.171726,0.033524,9.585728,0.035036,-0.008763,-0.004570,0.005498,-0.053594,-0.137326,0.316836,-0.007817,-0.006585,-0.021459,-0.016531,-0.018205,-0.711060,0.012783,0.000000,0.000000,0.000000,0.000000,0.322440,0.000000,0.000000,100.000000,30.119440,-1.952000
4000,-0.000319,0.047084,-0.170427,0.029924,9.584229,0.038049,-0.009800,-0.004012,0.003089,-0.053545,-0.137305,0.316837,-0.003952,-0.014973,-0.021928,-0.016608,-0.018159,-0.711035,-0.009587,0.000000,0.000000,0.000000,0.000000,0.322433,0.000000,0.000000,100.000000,30.128294,-1.952000
4020,-0.019887,0.063041,-0.170992,0.028148,9.587852,0.038719,-0.010893,-0.004983,0.000997,-0.053579,-0.137340,0.316838,-0.010930,-0.012125,-0.021215,-0.016639,-0.018142,-0.711395,-0.018109,0.000000,0.000000,0.000000,0.000000,0.322439,0.000000,0.000000,100.000000,30.110588,-1.952000
4040,-0.028306,0.070568,-0.169216,0.026164,9.586848,0.037105,-0.009312,-0.005395,0.001890,-0.053628,-0.137364,0.316840,0.000247,-0.004788,-0.021457,-0.016602,-0.018191,-0.711558,0.006392,0.000000,0.000000,0.000000,0.000000,0.322439,0.000000,0.000000,100.000000,30.119440,-1.952000
4060,-0.019849,0.072527,-0.174777,0.019206,9.573642,0.036225,-0.007629,-0.005876,0.004192,-0.053621,-0.137340,0.316852,-0.008392,-0.015798,-0.021885,-0.016545,-0.018233,-0.711355,0.002131,0.000000,0.000000,0.000000,0.000000,0.322443,0.000000,0.000000,100.000000,30.119440,-1.974000
4080,-0.024620,0.070830,-0.178009,0.022681,9.575412,0.029932,-0.007315,-0.005788,0.003267,-0.053579,-0.137305,0.316847,-0.009144,-0.008606,-0.021760,-0.016549,-0.018195,-0.711107,0.004261,0.000000,0.000000,0.000000,0.000000,0.322440,0.000000,0.000000,100.000000,30.119440,-1.974000
4100,-0.034117,0.066359,-0.182438,0.025155,9.577485,0.026530,-0.006001,-0.006569,0.001846,-0.053584,-0.137298,0.316831,-0.004191,0.006256,-0.022079,-0.016597,-0.018226,-0.711258,-0.005326,0.000000,0.000000,0.000000,0.000000,0.322440,0.000000,0.000000,100.000000,30.110588,-1.974000
4120,-0.032438,0.062708,-0.182461,0.025099,9.576574,0.026597,-0.006529,-0.006082,0.002474,-0.053616,-0.137347,0.316825,-0.004890,-0.000000,-0.022063,-0.016563,-0.018191,-0.711514,-0.009587,0.000000,0.000000,0.000000,0.000000,0.322436,0.000000,0.000000,100.000000,30.110588,-1.974000
4140,-0.010415,0.048932,-0.174418,0.029655,9.574533,0.024003,-0.007350,-0.004829,0.006108,-0.053626,-0.137376,0.316817,0.003832,-0.001055,-0.022403,-0.016579,-0.018158,-0.711446,0.020240,0.000000,0.000000,0.000000,0.000000,0.322441,0.000000,0.000000,100.000000,30.119440,-1.974000
4160,0.001238,0.059833,-0.167346,0.044680,9.586096,0.033227,-0.008853,-0.003673,0.007604,-0.053587,-0.137322,0.316811,-0.006970,0.006453,-0.022303,-0.016541,-0.018176,-0.711144,0.013848,0.000000,0.000000,0.000000,0.000000,0.322440,0.000000,0.000000,100.000000,30.119440,-1.974000
4180,-0.002195,0.057025,-0.171584,0.044207,9.581755,0.036441,-0.008664,-0.003764,0.003515,-0.053604,-0.137341,0.316803,-0.010491,-0.000977,-0.022555,-0.016501,-0.018192,-0.711226,-0.013848,0.000000,0.000000,0.000000,0.000000,0.322440,0.000000,0.000000,100.000000,30.119440,-1.974000
4200,-0.011412,0.063179,-0.169509,0.042254,9.583869,0.037921,-0.009800,-0.003515,0.001278,-0.053615,-0.137379,0.316808,-0.003086,-0.002153,-0.022158,-0.016549,-0.018138,-0.711549,-0.014914,0.000000,0.000000,0.000000,0.000000,0.322439,0.000000,0.000000,100.000000,30.119440,-1.974000
4220,-0.011452,0.064127,-0.166636,0.044454,9.583948,0.038171,-0.009232,-0.004616,0.002131,-0.053638,-0.137401,0.316808,0.008307,-0.005004,-0.022251,-0.016569,-0.018152,-0.711694,0.004261,0.000000,0.000000,0.000000,0.000000,0.322436,0.000000,0.000000,100.000000,30.119440,-1.974000
